{[
  {
    "name": "海安路地下停車場",
    "address": "台南市中西區海安路188號B1",
    "car": 381,
    "moto": 0,
    "car_total": 932,
    "moto_total": 0,
    "lat": "22.991501",
    "lng": "120.195621"
  },
  {
    "name": "安億路路外停車場 ",
    "address": "安平區安億路與慶平路路口東南側",
    "car": 0,
    "moto": 0,
    "car_total": 419,
    "chargeTime": "早上00:00至下午24:00",
    "chargeFee": "公有免費停車場",
    "lat": "22.997425",
    "lng": "120.164037"
  },
  {
    "name": "樹屋停車場",
    "address": "樹屋(履鋒新村)臨時停車場",
    "car": 0,
    "moto": 0,
    "car_total": 140,
    "moto_total": 0,
    "chargeTime": "早上00:00至下午24:00",
    "chargeFee": "公有免費停車場",
    "lat": "23.003582",
    "lng": "120.159792"
  },
  {
    "name": "遊憩碼頭停車場",
    "address": "安平區運河路(觀景台、金城里活動中心旁)",
    "car": 97,
    "moto": 0,
    "car_total": 117,
    "moto_total": 0,
    "chargeTime": "早上00:00至下午24:00",
    "chargeFee": "公有免費停車場",
    "lat": "22.996402",
    "lng": "120.159702"
  },
  {
    "name": "水景公園停車場(交工科)",
    "address": "安平區安北路水景公園旁",
    "car": 108,
    "moto": 0,
    "car_total": 138,
    "moto_total": 0,
    "chargeTime": "早上00:00至下午24:00",
    "chargeFee": "公有收費停車場",
    "lat": "22.999508",
    "lng": "120.157948"
  },
  {
    "name": "崇善路龍山停車場",
    "address": "台南市東區崇善路51號",
    "car": 114,
    "moto": 0,
    "car_total": 158,
    "moto_total": 0,
    "motoDis_total": 0,
    "lat": "22.982593",
    "lng": "120.221534"
  },
  {
    "name": "東光路地下停車場",
    "address": "台南市東區東光路一段76號",
    "car": 96,
    "moto": 0,
    "car_total": 252,
    "moto_total": 0,
    "chargeTime": "24小時",
    "chargeFee": "07~23:每小時20元,23~07:每小時10元",
    "lat": "22.992491",
    "lng": "120.231296"
  },
  {
    "name": "南瀛綠都心公園地下停車場",
    "address": "台南市新營區中正路23-1號",
    "car": 110,
    "moto": 0,
    "car_total": 200,
    "moto_total": 0,
    "lat": "23.309726",
    "lng": "120.316173"
  },
  {
    "name": "大宏社區公園停車場",
    "address": "台南市新營區三民段一地號",
    "car": 20,
    "moto": 0,
    "car_total": 28,
    "moto_total": 0,
    "lat": "23.307886",
    "lng": "120.317136"
  },
  {
    "name": "公園南路停車場",
    "address": "台南市北區海安路3段與公園南路口",
    "car": 12,
    "moto": 0,
    "car_total": 111,
    "moto_total": 0,
    "chargeTime": "24小時",
    "chargeFee": "小型車10元／半小時；大型車20元／半小時",
    "lat": "23.002911",
    "lng": "120.200498"
  },
  {
    "name": "榮譽街停車場",
    "address": "台南市東區榮譽街",
    "car": 204,
    "moto": 0,
    "car_total": 352,
    "moto_total": 0,
    "lat": "22.976591",
    "lng": "120.219439"
  }
]